,City,Lat,Lng,Max Temp,Humidity,Cloudiness,Wind Speed,Country,Date
0,hobart,-42.8794,147.3294,73.4,53,98,8.05,AU,1613748215
1,brae,60.3964,-1.353,44.6,87,75,28.77,GB,1613748375
2,beni suef,29.0731,31.0979,63.64,42,84,8.16,EG,1613748375
3,ostrovnoy,68.0531,39.5131,-1.57,91,98,3.09,RU,1613748376
4,saskylakh,71.9167,114.0833,-26.61,85,86,7.16,RU,1613748376
5,taoudenni,22.6783,-3.9836,96.06,8,0,14.92,ML,1613748376
6,lorengau,-2.0226,147.2712,81.63,81,59,7.2,PG,1613748376
7,albany,42.6001,-73.9662,27.0,70,100,4.54,US,1613748186
8,gubkinskiy,64.434,76.5026,-21.73,87,99,4.21,RU,1613748376
9,mataura,-46.1927,168.8643,55.0,90,41,8.01,NZ,1613748377
10,port alfred,-33.5906,26.891,72.0,86,90,4.0,ZA,1613748377
11,lebu,-37.6167,-73.65,59.4,44,0,18.79,CL,1613748378
12,rikitea,-23.1203,-134.9692,79.0,70,100,16.31,PF,1613748194
13,port elizabeth,-33.918,25.5701,73.4,73,20,9.22,ZA,1613748113
14,kapaa,22.0752,-159.319,73.4,78,90,16.11,US,1613748378
15,ushuaia,-54.8,-68.3,50.0,62,75,3.44,AR,1613748164
16,canico,32.6333,-16.85,64.4,82,75,20.71,PT,1613748378
17,castro,-24.7911,-50.0119,78.3,50,0,3.53,BR,1613748379
18,dikson,73.5069,80.5464,-31.94,81,59,8.66,RU,1613748379
19,severo-kurilsk,50.6789,156.125,30.65,95,100,19.15,RU,1613748380
20,vaini,-21.2,-175.2,77.0,83,75,13.8,TO,1613748380
21,yellowknife,62.456,-114.3525,3.2,85,75,8.05,CA,1613748230
22,otukpo,7.1913,8.1329,95.11,10,99,5.39,NG,1613748381
23,soyo,-6.1349,12.3689,79.5,81,100,8.46,AO,1613748381
24,provideniya,64.3833,-173.3,-6.41,78,21,0.6,RU,1613748382
25,kurilsk,45.2333,147.8833,25.03,97,99,13.58,RU,1613748382
26,punta arenas,-53.15,-70.9167,51.8,62,75,16.11,CL,1613748382
27,ribeira grande,38.5167,-28.7,53.6,66,75,27.63,PT,1613748382
28,boda,4.3189,17.4695,96.35,15,88,5.39,CF,1613748382
29,tuktoyaktuk,69.4541,-133.0374,-22.0,69,90,8.05,CA,1613748382
30,tiksi,71.6872,128.8694,-26.91,86,100,5.32,RU,1613748383
31,arraial do cabo,-22.9661,-42.0278,86.0,74,75,6.91,BR,1613748383
32,hermanus,-34.4187,19.2345,71.01,61,62,4.0,ZA,1613748384
33,port lincoln,-34.7333,135.8667,63.99,83,65,15.52,AU,1613748384
34,east london,-33.0153,27.9116,71.6,88,75,10.36,ZA,1613748384
35,chuy,-33.6971,-53.4616,79.88,57,0,6.49,UY,1613748384
36,palu,-0.8917,119.8707,74.98,82,97,1.74,ID,1613748384
37,nurlat,54.4277,50.8051,1.76,95,100,5.64,RU,1613748384
38,busselton,-33.65,115.3333,55.0,85,0,11.25,AU,1613748385
39,nome,64.5011,-165.4064,-16.26,84,0,1.99,US,1613748385
40,barrow,71.2906,-156.7887,-5.8,77,90,16.11,US,1613748386
41,jiblah,13.9216,44.1467,61.3,84,72,3.33,YE,1613748386
42,klaksvik,62.2266,-6.589,41.0,93,75,20.71,FO,1613748386
43,bredasdorp,-34.5322,20.0403,68.0,56,49,12.66,ZA,1613748386
44,nemuro,43.3236,145.575,29.1,90,12,13.42,JP,1613748386
45,oranjestad,12.524,-70.027,84.2,61,20,24.16,AW,1613748332
46,hilo,19.7297,-155.09,68.0,68,40,3.27,US,1613748085
47,tiznit,29.5833,-9.5,71.71,20,0,9.31,MA,1613748387
48,coracao de maria,-12.2333,-38.75,88.54,42,100,5.44,BR,1613748387
49,kavieng,-2.5744,150.7967,83.23,79,64,11.48,PG,1613748388
50,partizanskoye,55.5006,94.39,31.75,94,100,14.9,RU,1613748388
51,avarua,-21.2078,-159.775,78.8,89,75,10.36,CK,1613748388
52,bluff,-46.6,168.3333,55.0,90,58,8.01,NZ,1613748388
53,beira,-19.8436,34.8389,89.6,66,75,4.61,MZ,1613748388
54,murgab,37.4966,61.9714,42.8,49,75,13.8,TM,1613748388
55,san patricio,28.017,-97.5169,35.01,60,75,10.36,US,1613748390
56,port macquarie,-31.4333,152.9167,69.01,100,75,3.44,AU,1613748390
57,lagoa,39.05,-27.9833,50.18,80,100,32.3,PT,1613748390
58,new norfolk,-42.7826,147.0587,73.4,53,96,8.05,AU,1613748390
59,lavrentiya,65.5833,-171.0,-15.77,78,0,1.12,RU,1613748390
60,kazachinskoye,57.6953,93.2761,3.43,93,100,9.91,RU,1613748390
61,jamestown,42.097,-79.2353,27.0,86,90,8.05,US,1613748300
62,atuona,-9.8,-139.0333,78.73,79,98,13.62,PF,1613748391
63,kahului,20.8947,-156.47,71.6,83,1,12.66,US,1613748391
64,sitka,57.0531,-135.33,39.2,93,90,23.02,US,1613748391
65,ust-nera,64.5667,143.2,-25.49,77,36,1.05,RU,1613748391
66,cape town,-33.9258,18.4232,73.0,56,20,26.46,ZA,1613748157
67,longyearbyen,78.2186,15.6401,23.0,80,75,8.05,SJ,1613748392
68,marawi,7.9986,124.2928,77.0,82,100,17.0,PH,1613748392
69,thompson,55.7435,-97.8558,-7.6,77,75,4.61,CA,1613748392
70,guerrero negro,27.9769,-114.0611,54.54,38,0,6.29,MX,1613748392
71,upernavik,72.7868,-56.1549,-14.44,87,100,2.28,GL,1613748392
72,saint-philippe,-21.3585,55.7679,78.8,89,0,4.61,RE,1613748392
73,bambous virieux,-20.3428,57.7575,82.4,78,75,11.5,MU,1613748393
74,vardo,70.3705,31.1107,17.6,62,40,12.66,NO,1613748393
75,mecca,21.4267,39.8261,73.58,36,1,16.73,SA,1613748393
76,mansa,29.9833,75.3833,64.09,26,0,2.55,IN,1613748393
77,mandera,3.9366,41.867,98.11,20,100,4.94,KE,1613748394
78,geraldton,-28.7667,114.6,66.2,63,0,17.27,AU,1613748394
79,iqaluit,63.7506,-68.5145,-14.01,70,90,6.91,CA,1613748394
80,kamenka,51.3223,42.7678,1.72,93,63,8.93,RU,1613748394
81,airai,-8.9266,125.4092,60.67,100,99,2.19,TL,1613748394
82,awbari,26.5921,12.7805,71.67,20,0,8.43,LY,1613748394
83,pietarsaari,63.65,22.6833,25.0,93,90,6.91,FI,1613748395
84,shimoda,34.6667,138.95,39.0,63,0,5.01,JP,1613748395
85,nebolchi,59.1239,33.3454,5.85,95,98,3.24,RU,1613748395
86,half moon bay,37.4636,-122.4286,55.0,71,90,8.41,US,1613748396
87,riyadh,24.6877,46.7219,64.4,24,40,9.22,SA,1613748260
88,meulaboh,4.1363,96.1285,80.44,75,55,3.49,ID,1613748396
89,surt,31.2089,16.5887,62.65,50,0,9.01,LY,1613748396
90,bathsheba,13.2167,-59.5167,84.2,58,40,25.32,BB,1613748396
91,nikolskoye,59.7035,30.7861,16.0,67,75,2.24,RU,1613748396
92,bethel,41.3712,-73.414,28.0,86,90,5.75,US,1613748396
93,kodiak,57.79,-152.4072,24.8,39,1,33.38,US,1613748397
94,tuatapere,-46.1333,167.6833,55.0,90,1,8.01,NZ,1613748397
95,plettenberg bay,-34.0527,23.3716,69.57,66,0,9.51,ZA,1613748397
96,alofi,-19.0595,-169.9187,71.6,100,47,3.44,NU,1613748398
97,coquimbo,-29.9533,-71.3436,66.2,68,0,10.36,CL,1613748256
98,zyryanka,65.75,150.85,-31.9,83,48,4.36,RU,1613748398
99,korla,41.7597,86.1469,40.93,61,100,5.97,CN,1613748398
100,alta floresta,-9.8756,-56.0861,75.2,100,90,4.61,BR,1613748398
101,jiwani,25.05,61.7417,73.83,56,50,7.58,PK,1613748398
102,edson,53.5835,-116.4356,23.0,63,90,4.61,CA,1613748399
103,matamoros,25.5333,-103.25,42.8,52,1,3.44,MX,1613748399
104,northam,51.0333,-4.2167,52.0,88,100,20.0,GB,1613748399
105,vostok,46.4856,135.8833,12.47,97,100,4.0,RU,1613748399
106,esperance,-33.8667,121.9,59.0,82,0,5.75,AU,1613748400
107,puerto ayora,-0.7393,-90.3518,79.0,78,75,6.91,EC,1613748400
108,faanui,-16.4833,-151.75,81.1,73,100,16.75,PF,1613748400
109,aswan,24.0934,32.907,68.76,23,0,15.23,EG,1613748400
110,petropavlovsk-kamchatskiy,53.0452,158.6483,28.4,54,93,22.37,RU,1613748400
111,tasiilaq,65.6145,-37.6368,28.4,59,75,3.44,GL,1613748401
112,constitucion,-35.3333,-72.4167,68.16,52,0,6.87,CL,1613748401
113,outlook,51.5001,-107.0513,12.99,79,100,8.05,CA,1613748401
114,kruisfontein,-34.0033,24.7314,75.0,69,39,10.0,ZA,1613748402
115,gorontalo,0.5412,123.0595,75.81,88,78,4.88,ID,1613748402
116,saint leonard,47.173,-67.9247,14.0,76,5,1.01,CA,1613748402
117,samaipata,-18.15,-63.8667,71.1,58,22,3.8,BO,1613748402
118,kainantu,-6.2887,145.8655,60.57,93,94,2.35,PG,1613748403
119,hasaki,35.7333,140.8333,35.6,87,20,5.75,JP,1613748403
120,vanersborg,58.3807,12.3234,37.0,100,90,4.61,SE,1613748403
121,aksaray,38.3726,34.0254,30.2,74,75,8.05,TR,1613748347
122,pacific grove,36.6177,-121.9166,51.8,54,90,3.22,US,1613748403
123,madimba,-10.4,40.3333,82.4,78,20,13.8,TZ,1613748404
124,butaritari,3.0707,172.7902,81.01,81,22,16.55,KI,1613748404
125,qaanaaq,77.484,-69.3632,-23.46,80,98,6.22,GL,1613748404
126,naples,40.8333,14.25,59.0,58,40,4.61,IT,1613748203
127,sawtell,-30.3833,153.1,68.0,94,75,8.05,AU,1613748405
128,bandarbeyla,9.4942,50.8122,76.32,66,8,18.37,SO,1613748405
129,saint george,37.1041,-113.5841,30.2,47,1,0.98,US,1613748406
130,clyde river,70.4692,-68.5914,-32.8,68,1,4.61,CA,1613748406
131,sete,43.4018,3.6966,57.2,88,90,12.66,FR,1613748406
132,hithadhoo,-0.6,73.0833,83.66,74,47,9.98,MV,1613748407
133,uddevalla,58.3478,11.9424,37.0,100,90,4.61,SE,1613748407
134,luchegorsk,46.4764,134.2569,19.15,97,100,4.72,RU,1613748407
135,susanville,40.4163,-120.653,35.6,87,75,3.44,US,1613748408
136,begusarai,25.4167,86.1333,68.7,27,87,7.05,IN,1613748408
137,souillac,-20.5167,57.5167,82.4,78,75,11.5,MU,1613748408
138,aykhal,66.0,111.5,-28.7,83,99,5.41,RU,1613748408
139,flinders,-34.5833,150.8552,69.01,89,14,1.01,AU,1613748409
140,karaton,-6.3424,106.1045,80.6,83,40,2.3,ID,1613748409
141,sao joao da barra,-21.6403,-41.0511,80.6,78,75,6.91,BR,1613748409
142,dzilam gonzalez,21.2833,-88.9333,74.44,84,69,11.32,MX,1613748409
143,te anau,-45.4167,167.7167,47.82,62,0,1.57,NZ,1613748409
144,georgetown,5.4112,100.3354,82.99,57,20,11.5,MY,1613748409
145,mafinga,-7.25,35.0667,80.31,63,100,2.84,TZ,1613748410
146,opuwo,-18.0607,13.84,87.58,27,64,3.33,NA,1613748410
147,peabiru,-23.9128,-52.3431,77.0,61,0,5.75,BR,1613748410
148,rocha,-34.4833,-54.3333,82.71,47,0,13.51,UY,1613748411
149,mar del plata,-38.0023,-57.5575,71.01,60,75,17.27,AR,1613748346
150,biak,-0.9131,122.8766,78.22,72,53,5.75,ID,1613748411
151,exmouth,50.6172,-3.4023,52.0,93,75,16.11,GB,1613748411
152,talnakh,69.4865,88.3972,-33.92,79,1,0.74,RU,1613748411
153,cabo san lucas,22.8909,-109.9124,63.0,88,1,8.05,MX,1613748411
154,lasa,46.6166,10.7002,57.2,41,64,4.61,IT,1613748411
155,swellendam,-34.0226,20.4417,68.0,56,41,12.66,ZA,1613748412
156,bengkulu,-3.8004,102.2655,77.0,86,86,4.74,ID,1613748412
157,saldanha,-33.0117,17.9442,73.4,49,0,19.57,ZA,1613748412
158,lethem,3.3803,-59.7968,89.85,39,0,13.4,GY,1613748412
159,bossangoa,6.4926,17.4552,94.62,13,100,5.39,CF,1613748412
160,yunyang,33.4474,112.7142,58.32,31,0,6.13,CN,1613748413
161,palimbang,6.2106,124.1894,79.68,70,100,6.04,PH,1613748413
162,neka,36.6508,53.299,46.4,87,40,4.61,IR,1613748413
163,ijui,-28.3878,-53.9147,78.8,65,20,4.61,BR,1613748413
164,san quintin,30.4833,-115.95,56.14,53,0,3.91,MX,1613748413
165,cidreira,-30.1811,-50.2056,79.77,59,0,7.23,BR,1613748413
166,sambava,-14.2667,50.1667,81.68,82,33,9.08,MG,1613748414
167,kieta,-6.2167,155.6333,79.32,78,4,1.43,PG,1613748414
168,fortuna,40.5982,-124.1573,48.99,100,90,4.61,US,1613748414
169,port hawkesbury,45.6169,-61.3485,26.01,63,20,8.05,CA,1613748415
170,yulara,-25.2406,130.9889,82.4,57,21,11.5,AU,1613748415
171,acapulco,16.8634,-99.8901,71.6,73,1,4.61,MX,1613748415
172,sakaiminato,35.55,133.2333,42.8,75,40,18.41,JP,1613748305
173,loubomo,-4.1997,12.6739,80.13,69,100,5.14,CG,1613748415
174,carnarvon,-24.8667,113.6333,77.0,83,8,16.11,AU,1613748415
175,alice springs,-23.7,133.8833,87.01,65,0,1.14,AU,1613748415
176,asau,46.4333,26.4,30.0,49,65,3.04,RO,1613748415
177,isangel,-19.55,169.2667,79.97,81,43,7.07,VU,1613748415
178,syracuse,37.0881,15.2792,61.0,67,0,13.8,IT,1613748224
179,north myrtle beach,33.816,-78.68,39.0,93,90,8.05,US,1613748193
180,beringovskiy,63.05,179.3167,-16.76,89,97,9.84,RU,1613748415
181,kropotkin,45.4375,40.5756,24.01,87,100,9.37,RU,1613748417
182,raxaul,26.9833,84.85,64.96,35,0,6.69,IN,1613748418
183,hay river,60.8156,-115.7999,12.2,73,81,5.75,CA,1613748418
184,general roca,-39.0333,-67.5833,62.6,27,0,11.5,AR,1613748373
185,luderitz,-26.6481,15.1594,70.47,53,0,22.77,NA,1613748419
186,katsuura,35.1333,140.3,48.99,57,20,19.57,JP,1613748419
187,las lomas,8.4333,-82.4,82.4,69,20,5.75,PA,1613748419
188,wahiawa,21.5028,-158.0236,73.4,78,75,6.91,US,1613748419
189,ust-kuyga,70.0167,135.6,-29.56,83,89,3.0,RU,1613748419
190,mayo,38.8876,-76.5119,32.0,93,90,10.36,US,1613748419
191,huarmey,-10.0681,-78.1522,75.33,67,0,6.76,PE,1613748419
192,isla mujeres,21.2311,-86.731,78.8,83,20,4.99,MX,1613748419
193,cherskiy,68.75,161.3,-31.14,80,0,2.33,RU,1613748420
194,rabo de peixe,37.8,-25.5833,59.0,77,75,31.07,PT,1613748420
195,george,-33.963,22.4617,71.6,53,20,11.5,ZA,1613748420
196,iquitos,-3.7481,-73.2472,86.0,74,40,4.61,PE,1613748420
197,talgram,27.05,79.65,65.35,32,0,4.05,IN,1613748421
198,umm lajj,25.0213,37.2685,69.26,47,0,20.07,SA,1613748421
199,sheridan,44.8333,-106.9173,25.0,79,90,3.0,US,1613748294
200,ohara,35.25,140.3833,46.4,87,20,5.75,JP,1613748421
201,ilulissat,69.2167,-51.1,3.2,66,75,9.22,GL,1613748421
202,atikokan,48.7555,-91.6216,2.37,93,63,1.41,CA,1613748421
203,norman wells,65.282,-126.8329,-13.0,70,75,23.02,CA,1613748422
204,tautira,-17.7333,-149.15,78.8,78,40,9.22,PF,1613748422
205,delmas,18.5447,-72.3028,84.2,54,20,20.71,HT,1613748422
206,kitgum,3.2783,32.8867,92.23,18,100,7.74,UG,1613748422
207,palora,-1.7,-77.9333,69.8,94,90,4.61,EC,1613748423
208,puerto madryn,-42.7692,-65.0385,64.33,30,3,34.2,AR,1613748423
209,kazerun,29.6195,51.6541,54.57,67,2,3.44,IR,1613748423
210,fredonia,42.4401,-79.3317,28.4,86,95,8.05,US,1613748198
211,anadyr,64.75,177.4833,-22.0,76,40,4.47,RU,1613748402
212,agadez,19.75,10.25,76.46,15,2,11.32,NE,1613748423
213,pasni,25.2631,63.471,74.43,49,23,4.56,PK,1613748423
214,cartagena del chaira,1.3349,-74.8429,83.14,53,100,5.17,CO,1613748423
215,ixtapa,20.7,-105.2,69.01,82,1,1.81,MX,1613748424
216,vila velha,-20.3297,-40.2925,84.99,83,75,9.22,BR,1613748424
217,coihueco,-36.6167,-71.8333,62.6,63,0,10.36,CL,1613748424
218,naze,28.3667,129.4833,50.97,70,0,4.9,JP,1613748424
219,morant bay,17.8815,-76.4093,86.0,54,20,23.02,JM,1613748424
220,tumut,-35.3,148.2167,71.6,68,3,4.61,AU,1613748424
221,rio grande,-32.035,-52.0986,80.6,65,75,11.5,BR,1613748145
222,sarretudvari,47.2333,21.2,46.4,81,75,6.91,HU,1613748424
223,comodoro rivadavia,-45.8667,-67.5,59.0,47,20,12.66,AR,1613748425
224,dalby,-27.1833,151.2667,68.0,86,47,6.98,AU,1613748425
225,paracuru,-3.41,-39.0306,82.99,71,99,13.0,BR,1613748425
226,buchanan,5.8808,-10.0467,83.79,71,67,7.34,LR,1613748425
227,lazaro cardenas,17.9583,-102.2,71.47,71,19,4.45,MX,1613748425
228,puerto ayacucho,5.6639,-67.6236,89.65,46,3,10.29,VE,1613748425
229,floro,61.5996,5.0328,44.6,70,75,18.41,NO,1613748425
230,katangli,51.7102,143.2326,5.61,95,100,6.82,RU,1613748426
231,north bend,43.4065,-124.2243,46.99,100,90,3.44,US,1613748426
232,balakhta,55.38,91.6,27.48,95,100,7.47,RU,1613748426
233,kavaratti,10.5669,72.642,81.25,66,87,7.31,IN,1613748426
234,santa cruz,-17.8,-63.1667,82.4,69,40,4.61,BO,1613748389
235,berlevag,70.8578,29.0864,12.2,61,0,14.97,NO,1613748426
236,la ciotat,43.1748,5.6045,57.0,80,62,5.01,FR,1613748427
237,lata,40.1629,-8.3327,60.8,77,40,13.8,PT,1613748427
238,hofn,64.2539,-15.2082,39.2,70,75,11.5,IS,1613748427
239,pacora,9.0833,-79.2833,84.0,65,20,4.61,PA,1613748427
240,tshikapa,-6.4167,20.8,81.64,75,50,5.95,CD,1613748428
241,shirokiy,49.758,129.523,2.52,94,100,7.94,RU,1613748429
242,liepaja,56.5419,21.0367,28.4,74,90,5.75,LV,1613748429
243,lahaina,20.8783,-156.6825,71.6,83,1,12.66,US,1613748131
244,karlskoga,59.3267,14.5239,35.6,93,90,4.61,SE,1613748430
245,camana,-16.6228,-72.7111,75.63,66,13,11.23,PE,1613748430
246,portree,57.4129,-6.1942,48.0,86,100,24.0,GB,1613748430
247,salta,-24.7859,-65.4117,78.8,61,20,3.44,AR,1613748431
248,leningradskiy,69.3833,178.4167,-18.78,78,0,5.7,RU,1613748431
249,zhuhai,22.2769,113.5678,66.99,63,0,5.75,CN,1613748431
250,broken hill,-31.95,141.4333,82.4,24,63,9.22,AU,1613748431
251,bytow,54.1706,17.4919,37.0,95,100,9.84,PL,1613748431
252,teahupoo,-17.8333,-149.2667,78.8,78,40,9.22,PF,1613748431
253,torbay,47.6666,-52.7314,26.01,79,75,13.8,CA,1613748432
254,sobolevo,54.4299,31.8996,5.58,94,70,6.26,RU,1613748433
255,baijiantan,45.6333,85.1833,23.95,90,97,5.39,CN,1613748433
256,mahebourg,-20.4081,57.7,82.4,78,75,11.5,MU,1613748325
257,cap malheureux,-19.9842,57.6142,82.0,78,100,4.0,MU,1613748433
258,araouane,18.9048,-3.5265,90.93,10,81,13.09,ML,1613748433
259,maues,-3.3836,-57.7186,83.86,79,13,4.43,BR,1613748434
260,hailey,43.5196,-114.3153,15.8,86,20,6.91,US,1613748434
261,boyabat,41.4689,34.7667,37.4,65,75,19.57,TR,1613748435
262,saint-michel-des-saints,46.6834,-73.9159,14.0,94,96,3.94,CA,1613748435
263,kassala,15.451,36.4,85.14,23,0,17.07,SD,1613748137
264,san carlos,9.6612,-68.5827,90.1,40,63,1.97,VE,1613748435
265,ulladulla,-35.35,150.4667,64.99,100,6,3.65,AU,1613748436
266,tambacounda,13.7539,-13.7586,102.69,10,39,9.31,SN,1613748436
267,pangnirtung,66.1451,-65.7125,-22.0,69,75,2.59,CA,1613748436
268,lubumbashi,-11.6609,27.4794,75.25,87,100,2.44,CD,1613748436
269,promyshlennyy,67.5833,63.9167,-25.08,86,97,6.35,RU,1613748437
270,batticaloa,7.7102,81.6924,79.63,82,36,6.33,LK,1613748437
271,berdigestyakh,62.0989,126.6992,-18.53,87,95,3.18,RU,1613748437
272,pochutla,15.7432,-96.4661,77.0,73,1,3.24,MX,1613748437
273,shache,38.4167,77.2406,42.82,52,99,3.6,CN,1613748438
274,xining,36.6167,101.7667,33.28,55,0,2.55,CN,1613748438
275,voh,-20.9667,164.7,77.13,88,0,5.3,NC,1613748439
276,portland,45.5234,-122.6762,42.01,93,90,3.02,US,1613748145
277,pangai,-19.8,-174.35,79.88,76,84,12.93,TO,1613748439
278,chokurdakh,70.6333,147.9167,-32.85,85,0,0.47,RU,1613748440
279,kota kinabalu,5.9749,116.0724,78.8,83,20,6.91,MY,1613748440
280,ambilobe,-13.2,49.05,80.02,88,96,3.06,MG,1613748441
281,kalmunai,7.4167,81.8167,78.98,83,24,5.12,LK,1613748441
282,pilar,-9.5972,-35.9567,91.4,43,40,10.36,BR,1613748442
283,ostrowiec swietokrzyski,50.9294,21.3853,39.0,83,100,1.99,PL,1613748431
284,at-bashi,41.1702,75.8106,26.58,76,85,1.03,KG,1613748442
285,gaeta,41.2183,13.5628,60.01,80,80,3.98,IT,1613748443
286,haapiti,-17.5667,-149.8667,78.8,78,40,9.22,PF,1613748443
287,spearfish,44.4908,-103.8594,21.99,61,1,3.44,US,1613748443
288,victoria,22.2855,114.1577,64.99,67,98,7.54,HK,1613748443
289,tobol,52.6844,62.5794,-3.42,88,85,8.08,KZ,1613748444
290,sovetskiy,61.3614,63.5842,-16.94,88,97,5.06,RU,1613748444
291,leh,34.1667,77.5833,12.16,55,0,2.15,IN,1613748445
292,kenai,60.5544,-151.2583,16.0,85,90,5.75,US,1613748445
293,narsaq,60.9167,-46.05,26.6,39,20,2.3,GL,1613748445
294,fojnica,43.9625,17.8983,44.6,87,75,2.3,BA,1613748445
295,wencheng,33.0559,113.7978,56.5,38,0,7.78,CN,1613748445
296,kudahuvadhoo,2.6708,72.8944,82.24,76,81,16.28,MV,1613748445
297,pevek,69.7008,170.3133,-25.58,87,0,4.54,RU,1613748445
298,indiana,40.0003,-86.2503,16.0,79,1,6.91,US,1613748446
299,kiunga,-6.1219,141.2906,72.82,98,100,2.46,PG,1613748446
300,jalu,29.0331,21.5482,66.04,40,2,9.8,LY,1613748446
301,miri,4.4148,114.0089,77.0,94,20,2.3,MY,1613748446
302,butembo,0.15,29.2833,66.81,86,98,1.68,CD,1613748446
303,nairobi,-1.2833,36.8167,82.4,22,75,5.75,KE,1613748154
304,otane,-39.8833,176.6333,55.0,89,0,2.37,NZ,1613748447
305,dingle,10.9995,122.6711,70.27,84,100,10.78,PH,1613748447
306,novaya mayna,54.15,49.75,1.4,78,100,8.95,RU,1613748447
307,nanortalik,60.1432,-45.2371,20.98,87,14,8.55,GL,1613748447
308,el ocotito,17.25,-99.5667,71.6,73,1,4.61,MX,1613748448
309,pagudpud,18.5616,120.7868,66.2,72,20,3.44,PH,1613748448
310,ketchikan,55.3422,-131.6461,39.2,93,90,10.36,US,1613748448
311,vestmanna,62.1564,-7.1664,41.0,93,75,20.71,FO,1613748448
312,grindavik,63.8424,-22.4338,35.6,80,0,12.66,IS,1613748448
313,mount isa,-20.7333,139.5,77.0,78,92,10.36,AU,1613748448
314,bati,11.1833,40.0167,61.92,84,100,5.95,ET,1613748448
315,nicoya,10.1483,-85.452,82.4,57,0,6.91,CR,1613748448
316,willowmore,-33.2926,23.4895,80.38,24,0,0.81,ZA,1613748449
317,zhezkazgan,47.8043,67.7144,0.5,90,3,6.46,KZ,1613748449
318,vila franca do campo,37.7167,-25.4333,59.0,77,75,31.07,PT,1613748449
319,bubaque,11.2833,-15.8333,78.53,56,82,7.96,GW,1613748449
320,praia da vitoria,38.7333,-27.0667,50.0,87,75,26.42,PT,1613748450
321,karabash,55.4808,60.2157,-0.45,93,100,2.21,RU,1613748450
322,botad,22.1667,71.6667,75.58,20,74,7.76,IN,1613748450
323,maryborough,-25.5333,152.7,73.0,90,100,1.01,AU,1613748450
324,tazovskiy,67.4667,78.7,-23.48,87,100,9.82,RU,1613748450
325,karratha,-20.7377,116.8463,83.12,72,2,10.67,AU,1613748450
326,adrar,20.5022,-10.0711,92.1,11,18,11.14,MR,1613748450
327,goundam,16.4145,-3.6708,94.96,9,45,15.01,ML,1613748450
328,saint-augustin,51.226,-58.6502,7.59,88,21,9.37,CA,1613748451
329,tetiyiv,49.3767,29.6647,10.6,95,0,7.58,UA,1613748451
330,golden,39.7555,-105.2211,26.01,53,58,1.01,US,1613748451
331,lovozero,68.005,35.0117,-5.15,91,0,1.72,RU,1613748451
332,mogadishu,2.0371,45.3438,80.6,65,0,13.8,SO,1613748451
333,sompeta,18.9333,84.6,73.92,70,5,3.69,IN,1613748451
334,mount gambier,-37.8333,140.7667,62.6,88,90,9.22,AU,1613748451
335,savonlinna,61.8699,28.88,15.8,86,90,5.75,FI,1613748181
336,sechura,-5.5569,-80.8222,78.6,60,2,8.68,PE,1613748452
337,isla vista,34.4133,-119.861,52.0,75,1,4.32,US,1613748452
338,darovskoy,58.77,47.9564,-3.44,92,100,3.51,RU,1613748452
339,tulum,20.2167,-87.4667,82.4,69,40,6.91,MX,1613748452
340,namibe,-15.1961,12.1522,77.97,63,100,18.59,AO,1613748452
341,nakusp,50.2499,-117.8023,24.8,93,80,4.61,CA,1613748452
342,aljezur,37.3191,-8.8033,62.91,66,100,13.06,PT,1613748452
343,inhambane,-23.865,35.3833,80.6,94,75,23.02,MZ,1613748452
344,calama,-22.4667,-68.9333,68.0,26,20,4.61,CL,1613748416
345,nouadhibou,20.931,-17.0347,71.6,68,0,16.11,MR,1613748452
346,castlemaine,-37.0667,144.2167,75.0,51,65,6.96,AU,1613748157
347,sao paulo de olivenca,-3.3783,-68.8725,81.95,89,100,2.21,BR,1613748453
348,port arthur,38.8,121.2667,46.4,46,0,4.47,CN,1613748453
349,honningsvag,70.9821,25.9704,17.6,57,0,11.5,NO,1613748453
350,aasiaat,68.7098,-52.8699,-3.57,91,100,4.0,GL,1613748453
351,andenes,69.3143,16.1194,28.4,69,0,20.71,NO,1613748453
352,wao,7.6833,124.6833,64.89,90,100,5.41,PH,1613748453
353,grafton,42.207,-71.6856,28.0,80,90,10.36,US,1613748453
354,mirnyy,62.5353,113.9611,-28.17,85,77,2.66,RU,1613748453
355,gat,31.61,34.7642,51.01,100,88,8.3,IL,1613748453
356,bilma,18.6853,12.9164,76.14,16,0,6.69,NE,1613748454
357,juba,4.8517,31.5825,95.65,11,100,7.65,SS,1613748454
358,san marcos de colon,13.4333,-86.8,86.0,54,20,3.44,HN,1613748454
359,srednekolymsk,67.45,153.6833,-35.75,83,34,1.59,RU,1613748454
360,touros,-5.1989,-35.4608,87.8,55,40,10.36,BR,1613748454
361,pechenga,69.5259,31.1703,-5.8,77,20,6.91,RU,1613748454
362,antigonish,45.6169,-61.9986,24.01,49,88,1.14,CA,1613748454
363,luanda,-8.8368,13.2343,86.0,62,75,11.5,AO,1613748454
364,nioro,13.35,-15.75,101.07,9,5,10.36,GM,1613748454
365,buraydah,26.326,43.975,62.6,42,0,9.22,SA,1613748454
366,lewiston,44.1003,-70.2148,24.8,74,100,5.1,US,1613748454
367,tukrah,32.5341,20.5791,60.04,59,41,13.73,LY,1613748454
368,villazon,-22.0866,-65.5942,59.07,49,3,3.29,BO,1613748454
369,atar,20.5169,-13.0499,91.51,9,0,12.3,MR,1613748455
370,chipping sodbury,51.5381,-2.3938,52.0,85,100,8.99,GB,1613748455
371,boyolangu,-8.1181,111.8935,75.36,89,100,6.38,ID,1613748455
372,santa cruz do rio pardo,-22.8989,-49.6325,83.95,45,0,3.13,BR,1613748455
373,newport,51.5877,-2.9984,53.01,88,100,3.0,GB,1613748160
374,sosua,19.7667,-70.5167,84.2,65,20,13.8,DO,1613748193
375,rapid valley,44.0625,-103.1463,12.99,85,1,3.78,US,1613748455
376,troitskoye,52.9821,84.6757,10.08,93,100,15.48,RU,1613748455
377,lubao,14.9167,120.55,73.4,73,75,4.61,PH,1613748455
378,quatre cocos,-20.2078,57.7625,82.4,78,75,11.5,MU,1613748456
379,saint anthony,45.0205,-93.218,6.8,85,1,2.59,US,1613748456
380,baiyin,36.5583,104.2081,44.01,28,0,6.71,CN,1613748456
381,tivaouane,14.9515,-16.8129,89.6,15,25,12.66,SN,1613748456
382,baykit,61.67,96.37,-18.13,82,100,4.29,RU,1613748456
383,gainesville,29.6516,-82.3248,68.0,94,90,9.22,US,1613748355
384,tondano,1.3038,124.9112,78.8,89,40,3.44,ID,1613748456
385,skeldon,5.8833,-57.1333,82.81,64,17,8.95,GY,1613748456
386,ratnagiri,16.9833,73.3,79.59,53,83,8.61,IN,1613748363
387,whitehorse,60.7161,-135.0538,24.8,86,90,19.57,CA,1613748439
388,westport,41.1415,-73.3579,30.2,80,90,13.8,US,1613748373
389,diffa,13.3154,12.6113,77.74,17,0,16.91,NE,1613748457
390,erenhot,43.6475,111.9767,33.82,78,33,14.47,CN,1613748457
391,chabahar,25.2919,60.643,72.32,67,71,5.08,IR,1613748457
392,totness,5.8833,-56.3167,81.77,68,16,11.81,SR,1613748457
393,kaeo,-35.1,173.7833,57.0,93,1,1.99,NZ,1613748457
394,antibes,43.5624,7.1278,57.2,72,75,3.44,FR,1613748457
395,brandfort,-28.7001,26.4597,86.0,17,0,12.66,ZA,1613748457
396,dunedin,-45.8742,170.5036,55.99,66,12,2.28,NZ,1613748457
397,chiang klang,19.2938,100.8617,70.21,69,34,1.88,TH,1613748458
398,abu dhabi,24.4667,54.3667,73.4,73,0,10.36,AE,1613748284
399,mehamn,71.0357,27.8492,12.2,67,0,19.57,NO,1613748458
400,sao filipe,14.8961,-24.4956,72.41,70,0,6.49,CV,1613748458
401,salinas,36.6777,-121.6555,51.8,81,90,11.5,US,1613748179
402,mezobereny,46.8167,21.0333,46.99,63,100,5.01,HU,1613748458
403,kjollefjord,70.9457,27.3465,12.2,67,0,19.57,NO,1613748458
404,darhan,49.4867,105.9228,17.15,94,100,4.79,MN,1613748458
405,dudinka,69.4058,86.1778,-32.84,81,16,5.95,RU,1613748458
406,porto novo,6.4965,2.6036,91.4,43,67,8.05,BJ,1613748459
407,faya,18.3851,42.4509,62.6,77,40,8.05,SA,1613748459
408,emba,48.8264,58.1442,3.76,93,96,6.15,KZ,1613748459
409,llanes,43.4198,-4.7549,66.0,53,100,6.78,ES,1613748459
410,talara,-4.5772,-81.2719,80.6,61,0,19.57,PE,1613748459
411,ponta do sol,32.6667,-17.1,61.0,85,64,5.01,PT,1613748459
412,benguela,-12.5763,13.4055,81.28,65,92,9.95,AO,1613748459
413,mokhsogollokh,61.4681,128.9203,-16.55,88,93,2.66,RU,1613748459
414,laguna,38.421,-121.4238,48.99,93,90,4.92,US,1613748459
415,biltine,14.5333,20.9167,84.38,13,0,10.02,TD,1613748459
416,roebourne,-20.7833,117.1333,84.0,68,7,7.14,AU,1613748459
417,buckeye,33.3703,-112.5838,51.01,42,0,4.7,US,1613748403
418,pakokku,21.3333,95.1,81.16,42,100,2.04,MM,1613748460
419,dwarka,22.2394,68.9678,75.29,59,21,14.23,IN,1613748460
420,korem,12.5058,39.5228,53.06,99,100,5.1,ET,1613748460
421,yazman,29.1212,71.7446,72.41,19,8,8.25,PK,1613748460
422,khatanga,71.9667,102.5,-24.88,86,94,1.7,RU,1613748460
423,goderich,43.7501,-81.7165,19.4,86,100,3.44,CA,1613748460
424,cravo norte,6.3017,-70.2041,89.44,40,60,16.04,CO,1613748460
425,valparaiso,-33.0393,-71.6273,68.0,63,0,5.75,CL,1613748460
426,tonaya,19.7833,-103.9667,68.0,56,1,0.89,MX,1613748460
427,mayumba,-3.432,10.6554,81.12,76,100,7.2,GA,1613748460
428,irbeyskoye,55.6428,95.4522,23.13,96,100,3.22,RU,1613748461
429,kem,64.9555,34.5793,-12.6,90,0,3.04,RU,1613748461
430,zhangjiakou,40.81,114.8794,37.81,67,0,5.46,CN,1613748461
431,ahipara,-35.1667,173.1667,58.33,88,10,3.62,NZ,1613748191
432,minyar,55.0709,57.5485,4.73,92,100,5.64,RU,1613748461
433,disna,55.568,28.1971,11.28,94,69,6.26,BY,1613748461
434,banda aceh,5.5577,95.3222,77.85,71,52,14.5,ID,1613748461
435,balkhash,46.844,74.9804,33.24,93,96,15.19,KZ,1613748461
436,scarborough,54.2797,-0.4044,50.0,85,100,5.99,GB,1613748305
437,ornskoldsvik,63.2909,18.7153,24.8,100,90,4.61,SE,1613748462
438,husavik,66.0449,-17.3389,33.8,75,75,3.44,IS,1613748462
439,lebork,54.5392,17.7501,36.0,100,90,5.75,PL,1613748462
440,thinadhoo,0.5333,72.9333,82.69,76,42,12.3,MV,1613748462
441,kyaikkami,16.08,97.5675,79.97,65,0,3.69,MM,1613748462
442,hamilton,39.1834,-84.5333,21.2,73,90,5.75,US,1613748187
443,necochea,-38.5473,-58.7368,64.99,42,41,13.0,AR,1613748462
444,marzuq,14.4,46.4667,75.18,28,0,7.87,YE,1613748462
445,khromtau,50.2503,58.4347,-4.5,93,100,10.0,KZ,1613748462
446,puerto el triunfo,13.2833,-88.55,84.2,74,20,2.59,SV,1613748462
447,pisco,-13.7,-76.2167,72.0,78,0,6.91,PE,1613748462
448,pingzhuang,42.0372,119.2889,31.93,84,0,2.77,CN,1613748463
449,lima,-12.0432,-77.0282,70.0,88,90,10.36,PE,1613748429
450,bac lieu,9.285,105.7244,75.78,71,64,17.25,VN,1613748181
451,jumla,29.2747,82.1838,38.75,73,47,2.21,NP,1613748463
452,kindu,-2.95,25.95,80.02,81,100,1.72,CD,1613748463
453,wamba,8.9333,8.6,94.55,10,100,3.42,NG,1613748463
454,basi,26.8333,76.0333,73.4,20,0,5.75,IN,1613748463
455,caluquembe,-13.7833,14.6833,78.28,41,100,7.05,AO,1613748463
456,tessalit,20.1986,1.0114,87.26,12,27,9.08,ML,1613748463
457,kpandae,8.4689,-0.0113,99.09,8,35,9.1,GH,1613748463
458,keningau,5.3378,116.1602,78.8,83,20,6.91,MY,1613748464
459,wajima,37.4,136.9,46.24,73,63,30.44,JP,1613748464
460,conde,-7.2597,-34.9075,87.8,58,40,9.22,BR,1613748464
461,valea nucarilor,45.0333,28.9333,28.4,64,0,9.22,RO,1613748464
462,coos bay,43.3665,-124.2179,46.99,100,90,3.44,US,1613748464
463,port hedland,-20.3167,118.5667,84.2,74,90,8.05,AU,1613748464
464,krasnoborsk,61.5598,45.934,-6.56,91,98,3.47,RU,1613748464
465,ca mau,9.1769,105.15,74.79,70,7,10.51,VN,1613748464
466,denizli,37.8402,29.0698,41.0,45,75,2.71,TR,1613748464
467,college,64.8569,-147.8028,-11.2,64,75,8.05,US,1613748464
468,steamboat springs,40.485,-106.8317,12.99,78,90,4.61,US,1613748465
469,ola,59.5833,151.2833,-4.94,84,3,11.05,RU,1613748465
470,ilave,-16.0833,-69.6667,53.58,47,62,3.29,PE,1613748210
471,itoman,26.1247,127.6694,55.4,62,20,4.61,JP,1613748465
472,kushiro,42.975,144.3747,28.02,92,76,8.88,JP,1613748257
473,paamiut,61.994,-49.6678,12.81,89,45,17.34,GL,1613748465
474,lompoc,34.6391,-120.4579,45.0,86,20,4.61,US,1613748465
475,nagato,34.3833,131.2,48.2,61,20,12.66,JP,1613748466
476,dukat,62.55,155.55,-27.89,84,32,4.74,RU,1613748466
477,eyl,7.9803,49.8164,76.35,67,7,20.33,SO,1613748466
478,aklavik,68.2191,-135.0107,-18.4,76,75,5.75,CA,1613748466
479,ankang,32.68,109.0172,57.18,40,2,1.88,CN,1613748466
480,langenhagen,52.45,9.75,52.0,50,0,6.91,DE,1613748466
481,khandyga,62.6667,135.6,-28.1,84,63,0.67,RU,1613748466
482,maceio,-9.6658,-35.7353,91.4,43,40,10.36,BR,1613748466
483,bandar,2.05,99.75,73.67,89,53,2.48,ID,1613748466
484,hillsborough,37.5741,-122.3794,55.0,87,90,6.38,US,1613748467
485,kargasok,59.0556,80.8572,-16.13,88,100,12.44,RU,1613748467
486,wanlaweyn,2.6185,44.8938,91.04,34,100,15.59,SO,1613748467
487,dubbo,-32.25,148.6167,68.0,83,0,10.36,AU,1613748467
488,ondangwa,-17.9167,15.95,96.8,26,86,6.91,NA,1613748467
489,okha,53.5739,142.9478,7.74,95,100,13.73,RU,1613748467
490,brenham,30.1669,-96.3977,28.4,74,1,8.05,US,1613748468
491,lins,-21.6786,-49.7425,84.65,48,0,2.84,BR,1613748468
492,muroto,33.2833,134.15,48.88,62,0,11.03,JP,1613748468
493,porto walter,-8.2686,-72.7439,87.98,62,52,0.18,BR,1613748468
494,moyale,3.5167,39.0584,88.29,24,97,8.05,KE,1613748468
495,pidhorodne,48.5753,35.1068,15.8,67,0,6.71,UA,1613748468
496,taupo,-38.6833,176.0833,50.0,89,1,1.39,NZ,1613748468
497,kangaatsiaq,68.3065,-53.4641,1.8,92,100,11.56,GL,1613748469
498,sorland,67.667,12.6934,35.6,75,75,20.71,NO,1613748469
499,sinnamary,5.3833,-52.95,79.18,73,70,10.58,GF,1613748469
500,fort dodge,42.4975,-94.168,14.0,92,90,3.74,US,1613748328
501,nedjo,9.5046,35.5019,69.35,39,100,6.26,ET,1613748469
502,mutoko,-17.397,32.2268,77.11,59,83,6.35,ZW,1613748469
503,carmen,18.6333,-91.8333,75.2,83,90,17.27,MX,1613748469
504,arman,59.7,150.1667,-5.17,82,7,12.1,RU,1613748469
505,chapleau,47.8405,-83.4034,12.2,79,90,2.44,CA,1613748469
506,soe,-9.8607,124.284,66.22,95,98,4.27,ID,1613748469
507,shimonoseki,33.95,130.95,48.2,61,20,12.66,JP,1613748204
508,hibbing,47.4272,-92.9377,3.2,84,1,5.75,US,1613748470
509,yeppoon,-23.1333,150.7333,77.0,73,100,3.44,AU,1613748470
510,sefophe,-22.1833,27.9667,89.6,51,20,5.75,BW,1613748470
511,hazorasp,41.3194,61.0742,30.2,74,90,6.91,UZ,1613748470
512,colombo,6.9319,79.8478,82.4,78,20,6.91,LK,1613748442
513,sjovegan,68.8726,17.8474,19.99,67,40,11.5,NO,1613748470
514,thunder bay,48.4001,-89.3168,12.0,85,90,3.44,CA,1613748386
515,richards bay,-28.783,32.0377,79.75,73,2,9.42,ZA,1613748201
516,mlimba,-8.8,35.8167,86.65,63,98,2.46,TZ,1613748206
517,salalah,17.0151,54.0924,77.0,53,0,6.91,OM,1613748470
518,saint-francois,46.4154,3.9054,64.4,52,0,9.22,FR,1613748470
519,rossland,49.0831,-117.8022,19.99,95,99,1.61,CA,1613748471
520,talcahuano,-36.7167,-73.1167,64.4,39,0,11.5,CL,1613748471
521,shelburne,44.0787,-80.2041,23.0,86,90,2.3,CA,1613748471
522,padang,-0.9492,100.3543,82.4,61,20,3.44,ID,1613748471
523,abha,18.2164,42.5053,62.6,77,40,8.05,SA,1613748471
524,gabu,12.2833,-14.2167,103.06,14,62,4.76,GW,1613748471
525,mirzapur,25.15,82.5833,71.6,56,0,3.44,IN,1613748471
526,moissala,8.3404,17.7663,96.17,10,78,3.58,TD,1613748471
527,chicama,-7.8447,-79.1469,71.6,78,90,11.5,PE,1613748471
528,elizabeth city,36.2946,-76.2511,36.0,99,100,8.21,US,1613748443
529,bodden town,19.2833,-81.25,84.99,65,20,11.5,KY,1613748471
530,leshukonskoye,64.8989,45.7622,-17.36,88,66,3.49,RU,1613748471
531,ati,13.2154,18.3353,85.35,13,0,10.69,TD,1613748471
532,poum,-20.2333,164.0167,82.31,81,3,13.85,NC,1613748472
533,marystown,47.1666,-55.1483,24.53,91,88,14.97,CA,1613748472
534,abu samrah,35.3029,37.1841,44.51,79,87,10.51,SY,1613748472
535,abeche,13.8292,20.8324,89.6,13,0,6.91,TD,1613748472
536,cabedelo,-6.9811,-34.8339,87.8,58,40,9.22,BR,1613748472
537,chyhyryn,49.0838,32.6555,9.45,93,19,1.12,UA,1613748472
538,cota,4.8094,-74.098,62.6,59,75,3.44,CO,1613748472
539,mukhen,48.1,136.1,12.9,93,100,3.96,RU,1613748472
540,springbok,-29.6643,17.8865,72.77,35,0,16.51,ZA,1613748472
541,winsum,53.33,6.5208,48.99,79,100,1.99,NL,1613748472
542,campeche,19.0,-90.5,80.73,61,46,7.38,MX,1613748290
543,lake charles,30.2131,-93.2044,37.4,69,1,10.36,US,1613748473
544,pontianak,-0.0333,109.3333,78.8,83,20,6.91,ID,1613748473
545,evensk,61.95,159.2333,2.01,80,97,14.5,RU,1613748473
546,broome,42.2506,-75.833,28.0,86,90,4.61,US,1613748473
547,lashio,22.9333,97.75,62.15,73,100,0.69,MM,1613748473
548,sao miguel do araguaia,-13.275,-50.1628,74.12,96,99,7.0,BR,1613748473
549,zinacantan,16.75,-92.7,73.4,60,75,19.57,MX,1613748473
550,netishyn,50.34,26.6417,17.6,67,0,8.95,UA,1613748473
551,west wendover,40.7391,-114.0733,24.8,74,20,4.61,US,1613748473
552,amberley,39.2048,-84.428,21.2,73,90,5.75,US,1613748474
553,chateaubelair,13.2833,-61.25,82.4,61,75,17.27,VC,1613748474
554,calbuco,-41.768,-73.1273,55.4,58,75,6.91,CL,1613748474
555,port-gentil,-0.7193,8.7815,87.8,70,40,12.66,GA,1613748474
556,spas-klepiki,55.1347,40.1767,3.99,61,100,5.23,RU,1613748474
557,perth,-31.9333,115.8333,64.99,72,0,8.05,AU,1613748330
558,mpika,-11.8343,31.4529,74.12,83,100,1.21,ZM,1613748474
559,ancud,-41.8697,-73.8203,61.0,47,75,11.5,CL,1613748474
560,port augusta,-32.5,137.7667,78.01,83,0,18.41,AU,1613748475
561,turayf,31.6725,38.6637,51.8,50,40,11.5,SA,1613748475
562,hobyo,5.3505,48.5268,77.63,72,94,18.79,SO,1613748475
